City_ID,City,Lat,Lng,Max Temp,Humidity,Cloudiness,Wind Speed,Country,Date
0,grytviken,-54.2811,-36.5092,272.55,74,76,2.12,GS,1704074060
1,sanctuary point,-35.1114,150.629,295.92,73,76,5.41,AU,1704074061
2,tacna,-18.0056,-70.2483,290.26,82,0,3.09,PE,1704074079
3,port-aux-francais,-49.35,70.2167,278.38,80,79,14.97,TF,1704074062
4,uturoa,-16.7333,-151.4333,301.42,78,97,5.56,PF,1704074063
5,nova sintra,14.8667,-24.7167,295.87,64,100,4.95,CV,1704074081
6,talcahuano,-36.7167,-73.1167,288.97,72,0,2.57,CL,1704074065
7,georgetown,5.4112,100.3354,302.56,78,20,1.54,MY,1704074022
8,damghan,36.1683,54.348,276.63,64,100,0.45,IR,1704074066
9,hammerfest,70.6634,23.6821,266.4,68,32,2.06,NO,1704074067
10,bilibino,68.0546,166.4372,241.79,88,86,2.24,RU,1704074068
11,atafu village,-8.5421,-172.5159,302.1,70,100,1.89,TK,1704074069
12,mount pearl,47.5166,-52.7813,273.89,91,77,3.13,CA,1704074086
13,bardai,11.65,7.2333,290.28,25,3,3.94,NG,1704074087
14,avarua,-21.2078,-159.775,302.18,61,72,7.2,CK,1704074087
15,waitangi,-43.9535,-176.5597,286.94,91,100,0.89,NZ,1704074089
16,wynyard,-41.0,145.7167,291.31,68,100,3.33,AU,1704074089
17,stanley,54.868,-1.6985,277.33,93,75,5.14,GB,1704073981
18,thunder bay,48.4001,-89.3168,264.14,73,100,2.57,CA,1704074058
19,katsuren-haebaru,26.3369,127.8719,293.37,52,75,5.14,JP,1704074091
20,sao felix do xingu,-6.6447,-51.995,296.73,79,100,0.31,BR,1704073950
21,kyshtovka,56.555,76.6271,250.92,100,88,1.9,RU,1704074093
22,khandyga,62.6667,135.6,235.04,89,100,1.25,RU,1704074094
23,albany,42.6001,-73.9662,274.0,77,100,1.19,US,1704074029
24,vilyuchinsk,52.9306,158.4028,259.3,69,0,3.57,RU,1704074095
25,hithadhoo,-0.6,73.0833,299.91,83,100,3.92,MV,1704074096
26,nemuro,43.3236,145.575,268.04,60,94,10.03,JP,1704074097
27,al jawf,29.5,38.75,284.96,69,0,3.46,SA,1704074097
28,puerto natales,-51.7236,-72.4875,281.38,93,100,1.37,CL,1704074098
29,blackmans bay,-43.0167,147.3167,295.11,69,100,0.45,AU,1704074099
30,portland,45.5234,-122.6762,281.17,95,100,1.54,US,1704074083
31,uliastay,47.7417,96.8444,254.9,71,37,3.0,MN,1704074100
32,yellowknife,62.456,-114.3525,267.44,86,100,7.72,CA,1704073883
33,gunjur,13.2019,-16.7339,295.19,94,0,4.12,GM,1704074102
34,praia da vitoria,38.7333,-27.0667,290.24,88,20,7.35,PT,1704074102
35,hobyo,5.3505,48.5268,297.98,77,7,7.68,SO,1704074103
36,enoch,37.7733,-113.0244,276.75,44,0,4.63,US,1704074104
37,andergrove,-21.0833,149.1833,304.06,67,12,3.7,AU,1704074105
38,rawson,-43.3002,-65.1023,293.49,51,100,8.56,AR,1704074106
39,madera,37.1666,-119.8343,285.78,80,100,1.21,US,1704074107
40,cartagena,10.3997,-75.5144,300.94,78,20,5.14,CO,1704073835
41,yahotyn,50.2798,31.7625,273.32,91,51,1.58,UA,1704074108
42,ta`u,-14.2336,-169.5144,301.4,79,100,4.42,AS,1704074109
43,hawaiian paradise park,19.5933,-154.9731,297.52,84,75,3.6,US,1704074110
44,invercargill,-46.4,168.35,289.83,69,78,8.05,NZ,1704074111
45,papatowai,-46.5619,169.4708,289.26,58,92,8.46,NZ,1704074112
46,progreso,21.2833,-89.6667,294.07,67,0,5.15,MX,1704074113
47,san jose de feliciano,-30.3845,-58.7517,291.21,70,0,3.47,AR,1704074114
48,adamstown,-25.066,-130.1015,295.57,87,100,9.52,PN,1704074115
49,edinburgh of the seven seas,-37.0676,-12.3116,290.79,98,100,6.87,SH,1704074116
50,saint-philippe,-21.3585,55.7679,299.92,88,95,5.55,RE,1704074117
51,mamuju,-2.6748,118.8885,302.76,71,25,1.72,ID,1704074117
52,bethel,41.3712,-73.414,277.6,73,100,0.0,US,1704073934
53,st. john's,47.5649,-52.7093,274.35,90,86,4.47,CA,1704073893
54,namibe,-15.1961,12.1522,294.71,74,52,4.4,AO,1704074120
55,mata de sao joao,-12.5303,-38.2992,300.01,89,100,1.45,BR,1704074120
56,port elizabeth,-33.918,25.5701,292.09,99,100,5.14,ZA,1704074121
57,san jeronimo,-11.9472,-75.2829,283.77,89,100,2.38,PE,1704074122
58,hirara,24.8,125.2833,293.07,63,75,7.2,JP,1704074123
59,oroqen zizhiqi,50.5667,123.7167,258.71,88,99,0.58,CN,1704074124
60,hermanus,-34.4187,19.2345,292.48,87,11,7.14,ZA,1704074124
61,island harbour,50.724,-1.2758,283.33,80,79,4.02,GB,1704074125
62,ribeira grande,38.5167,-28.7,290.8,90,96,6.71,PT,1704074126
63,yatou,37.15,122.3833,273.14,70,10,2.53,CN,1704074127
64,kailua-kona,19.6406,-155.9956,301.64,64,0,6.69,US,1704073855
65,codrington,-38.2667,141.9667,293.83,61,100,5.8,AU,1704074128
66,selfoss,63.9331,-20.9971,269.84,73,100,5.75,IS,1704074129
67,severo-yeniseyskiy,60.3725,93.0408,257.88,91,100,4.2,RU,1704074130
68,tiksi,71.6872,128.8694,243.17,99,100,0.99,RU,1704074130
69,quellon,-43.1167,-73.6167,284.2,85,95,2.73,CL,1704074131
70,constantia,44.1833,28.65,279.65,85,12,4.68,RO,1704074046
71,nouadhibou,20.931,-17.0347,292.14,52,45,5.14,MR,1704074134
72,taltal,-25.4,-70.4833,292.56,76,9,2.11,CL,1704074134
73,kerikeri,-35.2268,173.9474,299.21,64,13,0.89,NZ,1704074135
74,cold springs,39.6802,-119.9766,277.65,78,0,0.0,US,1704074136
75,zuwarah,32.9312,12.082,288.13,60,2,3.49,LY,1704074137
76,zhangye,38.9342,100.4517,270.12,44,1,0.59,CN,1704074076
77,whitehorse,60.7161,-135.0538,259.16,83,40,0.0,CA,1704074138
78,kolonia,50.9333,6.95,283.05,69,40,4.63,DE,1704074074
79,iqaluit,63.7506,-68.5145,251.0,64,75,6.17,CA,1704074140
80,belozersk,60.0326,37.7957,258.7,95,100,5.36,RU,1704074141
81,taulaga,-11.0553,-171.0883,301.86,77,100,3.4,AS,1704074142
82,brisas de zicatela,15.8369,-97.0419,297.48,71,17,1.59,MX,1704074142
83,isafjordur,66.0755,-23.124,269.93,76,100,3.11,IS,1704074143
84,akwanga,8.9167,8.3833,293.95,27,0,1.91,NG,1704074144
85,flin flon,54.7682,-101.865,269.78,81,84,4.48,CA,1704074145
86,tual,-5.6667,132.75,302.33,72,100,3.49,ID,1704074145
87,la ronge,55.1001,-105.2842,269.29,74,40,2.57,CA,1704074146
88,haiku-pauwela,20.9219,-156.3051,299.16,57,20,4.63,US,1704074147
89,ushuaia,-54.8,-68.3,281.96,57,40,9.77,AR,1704074148
90,kenai,60.5544,-151.2583,269.9,90,100,9.77,US,1704074148
91,kavaratti,10.5669,72.642,300.48,80,99,6.33,IN,1704074150
92,altai,46.3722,96.2583,259.73,62,100,1.05,MN,1704074150
93,laguna,38.421,-121.4238,286.35,84,0,2.57,US,1704074151
94,asau,46.4333,26.4,272.75,74,57,2.45,RO,1704074152
95,talnakh,69.4865,88.3972,242.15,100,100,1.61,RU,1704074153
96,sumbawa besar,-8.5,117.4333,305.64,58,13,2.17,ID,1704074153
97,saipan,15.1355,145.701,303.54,79,40,6.17,MP,1704074154
98,akrehamn,59.2667,5.1833,277.82,48,20,11.83,NO,1704074155
99,mascoutah,38.4903,-89.7932,275.14,76,100,4.63,US,1704074156
100,port lincoln,-34.7333,135.8667,291.98,71,100,3.96,AU,1704074156
101,yuzhno-kurilsk,44.0306,145.8556,267.25,68,100,10.09,RU,1704074157
102,ola,59.5833,151.2833,249.28,82,60,3.33,RU,1704074158
103,keflavik,64.0049,-22.5624,271.39,80,0,4.63,IS,1704074158
104,yanchep,-31.55,115.6833,299.83,48,45,5.33,AU,1704073924
105,badger,64.8,-147.5333,250.29,75,0,1.54,US,1704073929
106,the pas,53.8251,-101.2541,272.16,64,75,4.12,CA,1704074160
107,minas de marcona,-15.2119,-75.1103,290.41,82,19,4.69,PE,1704074161
108,el alto,-4.2714,-81.2147,295.96,83,64,5.53,PE,1704074162
109,carnarvon,-24.8667,113.6333,299.18,64,3,8.87,AU,1704074163
110,port hedland,-20.3167,118.5667,308.18,52,10,8.23,AU,1704074165
111,susuman,62.7833,148.1667,238.14,100,99,0.45,RU,1704074166
112,ponta delgada,37.7333,-25.6667,291.59,82,40,4.12,PT,1704074166
113,garhi khairo,28.0606,67.9803,286.59,40,0,0.63,PK,1704074167
114,petropavlovka,50.6114,105.3196,254.8,93,55,1.92,RU,1704074168
115,saint-peray,44.95,4.8333,278.36,81,60,0.41,FR,1704074170
116,daru,-9.0763,143.2092,304.24,61,43,2.98,PG,1704074171
117,shingu,33.7333,135.9833,284.35,49,1,1.96,JP,1704074171
118,wailua homesteads,22.0669,-159.378,300.39,59,0,7.2,US,1704074172
119,chunskiy,56.0815,99.6342,267.97,93,100,4.18,RU,1704074173
120,conception bay south,47.4999,-52.9981,274.22,92,61,7.31,CA,1704074174
121,el nido,11.1858,119.3956,301.72,77,43,4.14,PH,1704074175
122,bom jesus,-9.0744,-44.3586,296.45,96,100,0.05,BR,1704074176
123,walvis bay,-22.9575,14.5053,289.68,77,0,1.54,NA,1704074177
124,guerrero negro,27.9769,-114.0611,289.4,64,6,3.15,MX,1704074177
125,alofi,-19.0595,-169.9187,300.09,83,53,4.63,NU,1704074178
126,olonkinbyen,70.9221,-8.7187,268.03,59,100,3.39,SJ,1704074179
127,savanna-la-mar,18.219,-78.1332,298.12,83,19,3.52,JM,1704074180
128,barra dos coqueiros,-10.9089,-37.0386,300.16,83,20,3.09,BR,1704074181
129,longyearbyen,78.2186,15.6401,271.06,80,20,5.14,SJ,1704074181
130,strelka,58.0728,93.0344,262.54,94,100,3.27,RU,1704074182
131,west island,-12.1568,96.8225,302.14,79,40,5.66,CC,1704074183
132,coquimbo,-29.9533,-71.3436,290.0,88,0,4.12,CL,1704074184
133,college,64.8569,-147.8028,250.33,73,75,1.54,US,1704074184
134,pemangkat,1.1667,108.9667,300.83,79,100,2.25,ID,1704074185
135,bredasdorp,-34.5322,20.0403,291.28,88,16,4.87,ZA,1704074186
136,waddan,29.1614,16.139,286.23,52,1,2.97,LY,1704074187
137,key largo,25.0865,-80.4473,290.92,63,0,0.64,US,1704074187
138,san agustin de valle fertil,-30.6335,-67.4682,298.01,61,53,3.26,AR,1704074188
139,fale old settlement,-9.3852,-171.2468,302.13,70,39,2.47,TK,1704074189
140,kirakira,-10.4544,161.9205,302.51,75,97,2.37,SB,1704074190
141,i-n-salah,27.1935,2.4607,286.77,32,3,4.66,DZ,1704074191
142,jamestown,42.097,-79.2353,274.92,98,100,0.89,US,1704074192
143,huangnihe,43.5583,128.0239,262.19,75,100,1.11,CN,1704074192
144,udachny,66.4167,112.4,249.27,99,100,0.78,RU,1704074194
145,alice springs,-23.7,133.8833,305.9,12,86,1.54,AU,1704074194
146,konarka,19.9,86.1167,288.37,63,0,3.18,IN,1704074195
147,port isabel,26.0734,-97.2086,294.17,85,0,4.12,US,1704074101
148,colonia,50.9333,6.95,283.05,69,40,4.63,DE,1704074074
149,dudinka,69.4058,86.1778,242.41,91,100,5.36,RU,1704073929
150,anacapri,40.5558,14.2136,287.12,93,75,2.06,IT,1704074198
151,remire-montjoly,4.9167,-52.2667,296.17,100,11,0.0,GF,1704074199
152,lazaro cardenas,17.9583,-102.2,296.62,75,5,1.53,MX,1704074200
153,kodiak,57.79,-152.4072,270.88,93,100,2.57,US,1704074112
154,zambezi,-13.5432,23.1047,292.26,98,100,2.26,ZM,1704074201
155,mandalgarh,25.2,75.1,285.03,64,0,2.5,IN,1704074202
156,baruun-urt,46.6806,113.2792,256.01,94,26,2.56,MN,1704074203
157,rawlins,41.7911,-107.2387,270.01,74,0,0.0,US,1704074204
158,faya-largeau,17.9257,19.1043,291.1,27,0,6.0,TD,1704074204
159,santa ana de yacuma,-13.75,-65.4333,296.36,92,100,2.39,BO,1704074205
160,port mathurin,-19.6833,63.4167,300.3,76,35,4.59,MU,1704074206
161,nadezhda,44.1,44.6,278.59,79,100,2.77,RU,1704074206
162,shakawe,-18.3667,21.85,294.48,70,8,1.56,BW,1704074207
163,nyurba,63.2842,118.3319,253.44,99,100,0.55,RU,1704074208
164,yorkton,51.2167,-102.4677,268.06,74,0,6.69,CA,1704074209
165,queenstown,-31.8976,26.8753,289.53,74,97,1.26,ZA,1704074209
166,happy valley-goose bay,53.3168,-60.3315,264.32,67,75,5.14,CA,1704074210
167,port saint john's,-31.6229,29.5448,294.6,88,47,4.19,ZA,1704074211
168,necochea,-38.5473,-58.7368,293.75,55,100,4.83,AR,1704074212
169,enewetak,11.3474,162.3373,300.29,81,100,8.02,MH,1704074212
170,popondetta,-8.7537,148.2534,307.67,46,100,2.34,PG,1704074213
171,thompson,55.7435,-97.8558,273.24,59,75,8.23,CA,1704074214
172,katsuura,35.1333,140.3,284.05,47,0,9.69,JP,1704074214
173,'ali sabieh,11.1558,42.7125,294.22,88,0,3.68,DJ,1704074215
174,barra de santo antonio,-9.4047,-35.5072,298.75,82,6,3.21,BR,1704074216
175,puerto lleras,3.0223,-73.4044,295.71,96,89,1.75,CO,1704074217
176,beohari,24.05,81.3833,285.97,52,0,1.58,IN,1704074217
177,gandajika,-6.75,23.95,293.1,97,100,0.91,CD,1704074218
178,aasiaat,68.7098,-52.8699,256.09,73,41,6.97,GL,1704074219
179,amos,48.5669,-78.1162,262.31,90,84,2.19,CA,1704074220
180,mount gambier,-37.8333,140.7667,295.43,51,100,4.08,AU,1704074044
181,suoyarvi,62.0833,32.35,252.19,94,71,3.72,RU,1704074222
182,la passe,45.5549,-0.8967,281.28,77,100,6.43,FR,1704074223
183,ust-nera,64.5667,143.2,229.92,98,75,2.32,RU,1704074224
184,buala,-8.145,159.5921,302.56,74,88,0.63,SB,1704074225
185,margaret river,-33.95,115.0667,294.56,56,100,6.03,AU,1704074226
186,griffith,41.5284,-87.4237,274.32,90,100,8.75,US,1704074073
187,nikolayevsk-on-amure,53.1406,140.73,252.57,74,7,1.88,RU,1704074228
188,polyarnyy,69.1989,33.4478,255.11,100,99,3.69,RU,1704074228
189,gadzhiyevo,69.2551,33.3362,254.74,100,99,3.45,RU,1704074229
190,qaqortoq,60.7167,-46.0333,259.99,63,91,3.63,GL,1704074230
191,gokwe,-18.2048,28.9349,290.5,93,36,1.81,ZW,1704074231
192,thurso,58.5927,-3.5259,278.63,89,100,2.79,GB,1704074231
193,lebu,-37.6167,-73.65,286.6,91,98,4.14,CL,1704074232
194,kuching,1.55,110.3333,303.7,80,20,2.06,MY,1704074154
195,salalah,17.0151,54.0924,295.2,73,0,1.54,OM,1704074000
196,lakatoro,-16.0999,167.4164,302.19,74,95,4.66,VU,1704074236
197,san felipe,10.3399,-68.7425,295.96,97,83,1.67,VE,1704074237
198,geraldton,-28.7667,114.6,301.38,54,5,5.66,AU,1704074166
199,muisne,0.6,-80.0333,298.22,85,99,1.92,EC,1704074238
200,poronaysk,49.2167,143.1167,255.46,71,1,0.49,RU,1704074239
201,muroto-misakicho,33.2833,134.15,284.64,52,3,3.04,JP,1704074240
202,tazovsky,67.4667,78.7,242.27,95,58,4.43,RU,1704074241
203,kavieng,-2.5744,150.7967,302.85,72,13,3.32,PG,1704074242
204,labytnangi,66.6572,66.4183,250.01,97,99,1.7,RU,1704074242
205,kushtagi,15.7667,76.2,289.43,92,14,3.56,IN,1704074243
206,barclayville,4.6797,-8.2339,298.84,89,36,2.05,LR,1704074244
207,san andres,12.5847,-81.7006,301.16,83,75,5.14,CO,1704074245
208,ribeira brava,32.65,-17.0667,292.5,77,100,0.86,PT,1704074246
209,justo daract,-33.8594,-65.1828,290.17,92,14,4.79,AR,1704074246
210,iskateley,67.6803,53.1512,250.94,100,84,4.02,RU,1704074247
211,ilulissat,69.2167,-51.1,258.56,46,28,6.82,GL,1704074248
212,benghazi,32.1167,20.0667,289.86,66,100,4.33,LY,1704074249
213,rongelap,11.1635,166.8941,300.61,78,99,8.46,MH,1704074250
214,rancho palos verdes,33.7445,-118.387,288.18,90,100,1.34,US,1704074251
215,kumcati,37.4657,42.2836,281.69,57,16,1.67,TR,1704074251
216,labrador city,52.9463,-66.9114,260.1,72,100,5.14,CA,1704074252
217,aykhal,66.0,111.5,250.21,100,100,0.46,RU,1704074253
218,bamboo flat,11.7,92.7167,301.2,74,20,2.57,IN,1704074254
219,cabo san lucas,22.8909,-109.9124,296.9,54,100,1.34,MX,1704074095
220,ebon,4.582,168.6964,301.41,78,92,6.02,MH,1704074256
221,porirua,-41.1333,174.85,293.89,61,15,1.78,NZ,1704074257
222,tozkhurmato,34.8905,44.6299,283.5,55,85,2.32,IQ,1704074257
223,barakani,-12.1356,44.4317,300.81,79,84,2.51,KM,1704074258
224,romanovskaya,47.5426,42.0285,276.48,74,5,6.71,RU,1704074259
225,paragominas,-2.9667,-47.4833,295.81,98,98,1.14,BR,1704074260
226,lavras da mangabeira,-6.7533,-38.9644,296.41,88,100,0.42,BR,1704074260
227,holualoa,19.6228,-155.9522,299.14,64,0,6.69,US,1704074261
228,hadibu,12.65,54.0333,297.53,70,10,4.53,YE,1704074262
229,smithers,54.7804,-127.1743,273.33,100,100,1.03,CA,1704074263
230,bengkulu,-3.8004,102.2655,299.35,86,100,1.75,ID,1704074263
231,ciechocinek,52.8791,18.7951,276.3,94,100,2.38,PL,1704074264
232,hamilton,39.1834,-84.5333,273.95,80,100,5.81,US,1704074090
233,tazacorte,28.629,-17.9293,290.69,43,0,3.58,ES,1704074266
234,pimentel,-6.8367,-79.9342,295.31,83,0,7.2,PE,1704074266
235,anadyr,64.75,177.4833,260.43,66,40,5.0,RU,1704074267
236,vadso,70.0744,29.7487,265.24,73,100,6.17,NO,1704074268
237,nuuk,64.1835,-51.7216,264.55,76,100,4.24,GL,1704074220
238,sant carles de la rapita,40.6167,0.6,286.13,54,100,2.98,ES,1704074269
239,dakhla,23.6848,-15.958,292.1,50,78,3.78,EH,1704074270
240,revelstoke,50.9832,-118.2023,274.16,93,100,0.0,CA,1704074270
241,al qubbah,32.7616,22.2424,284.28,72,100,2.95,LY,1704074271
242,anshun,26.25,105.9333,284.87,94,94,4.0,CN,1704074272
243,kapa'a,22.0752,-159.319,300.64,53,0,7.2,US,1704074273
244,punta arenas,-53.15,-70.9167,285.21,66,0,5.14,CL,1704074273
245,vila velha,-20.3297,-40.2925,296.45,89,75,5.36,BR,1704074274
246,okha,53.5739,142.9478,248.78,87,6,3.82,RU,1704074275
247,yaren,-0.5472,166.916,302.23,74,15,5.62,NR,1704074275
248,tolanaro,-25.0319,46.9987,295.97,94,100,4.81,MG,1704074276
249,petrolina,-9.3986,-40.5008,299.18,73,20,1.03,BR,1704074106
250,mao,39.8885,4.2658,285.46,76,0,3.09,ES,1704074278
251,vilyuysk,63.7553,121.6247,246.89,98,100,2.45,RU,1704074278
252,oranjemund,-28.55,16.4333,291.05,91,0,1.32,NA,1704074279
253,kribi,2.95,9.9167,299.72,86,100,2.65,CM,1704074280
254,maun,-19.9833,23.4167,294.13,100,0,1.03,BW,1704074280
255,vahdat,38.5563,69.0135,275.56,60,6,2.0,TJ,1704074242
256,lashio,22.9333,97.75,287.27,72,0,0.55,MM,1704074282
257,karungdong,5.8844,121.263,302.41,69,16,0.2,PH,1704074283
258,arraial do cabo,-22.9661,-42.0278,296.15,81,100,3.27,BR,1704074283
259,arkhara,49.4212,130.0842,253.02,82,100,3.13,RU,1704074284
260,darbhanga,26.1667,85.9,286.39,57,0,1.92,IN,1704074084
261,rikaze,29.25,88.8833,270.83,35,1,0.8,CN,1704074286
262,chilaw,7.5758,79.7953,298.16,85,99,7.78,LK,1704074287
263,charters towers,-20.1,146.2667,306.98,42,6,6.56,AU,1704074288
264,ta'izz,13.5,44.0,289.49,85,3,0.64,YE,1704074289
265,afaahiti,-17.75,-149.2833,303.08,81,89,3.89,PF,1704074290
266,penn yan,42.6609,-77.0539,275.0,92,100,0.45,US,1704074290
267,tambura,5.6,27.4667,294.32,32,6,1.39,SS,1704074291
268,tura,25.5198,90.2201,289.86,62,0,1.19,IN,1704074292
269,guaranda,-1.6,-79.0,286.13,87,100,0.88,EC,1704074293
270,berezovo,63.9381,65.0419,239.41,98,62,1.65,RU,1704074294
271,kapoeta,4.7717,33.5903,300.58,52,99,0.93,SS,1704074295
272,pokhara,28.2333,83.9833,286.02,37,0,1.65,NP,1704074295
273,serenje,-13.2325,30.2352,290.43,98,100,1.46,ZM,1704074296
274,valparaiso,-33.0393,-71.6273,289.95,77,0,0.0,CL,1704074297
275,jaisalmer,26.9147,70.9181,286.01,32,0,4.02,IN,1704074298
276,newman,37.3138,-121.0208,287.34,90,100,1.34,US,1704074299
277,saint-louis,16.3333,-15.0,296.35,12,100,4.34,SN,1704074299
278,altay,47.8667,88.1167,264.22,95,99,1.87,CN,1704074300
279,pavlodar,52.3,76.95,274.04,86,100,6.0,KZ,1704074301
280,waimea,20.0231,-155.6717,295.63,85,63,0.45,US,1704074300
281,lompoc,34.6391,-120.4579,288.09,82,100,2.57,US,1704074302
282,ha'il,27.5219,41.6907,284.16,100,75,1.03,SA,1704074303
283,chillicothe,39.3331,-82.9824,274.4,84,100,6.69,US,1704074304
284,glace bay,46.1969,-59.957,273.03,91,75,4.12,CA,1704074305
285,kupino,54.3663,77.2981,261.86,95,100,2.99,RU,1704074306
286,new norfolk,-42.7826,147.0587,295.21,36,97,1.21,AU,1704074307
287,tumayr,25.7039,45.868,289.12,67,48,4.11,SA,1704074307
288,san antonio de pale,-1.4014,5.6325,299.9,83,12,3.24,GQ,1704074310
289,elkins,38.9259,-79.8467,277.46,91,100,0.89,US,1704074206
290,mulayjah,27.271,48.4242,290.59,57,44,2.39,SA,1704074311
291,christchurch,-43.5333,172.6333,295.67,59,14,5.14,NZ,1704074312
292,puerto baquerizo moreno,-0.9,-89.6,297.38,91,9,4.36,EC,1704074313
293,tralee,52.2704,-9.7026,280.28,79,94,4.83,IE,1704074313
294,magalia,39.8121,-121.5783,279.99,92,99,1.79,US,1704074315
295,paka,4.6374,103.4368,299.11,94,40,0.0,MY,1704074316
296,gerash,27.6652,54.1371,283.23,66,5,0.78,IR,1704074317
297,puerto ayora,-0.7393,-90.3518,297.9,97,16,1.34,EC,1704074206
298,nagqu,31.5,92.0,259.79,65,100,1.36,CN,1704074319
299,nueva esperanza,15.2667,-87.6,292.94,96,98,0.03,HN,1704074319
300,chhor,25.5167,69.7667,287.96,28,0,4.12,PK,1704074321
301,tukzar,35.9483,66.4213,278.12,28,0,1.1,AF,1704074322
302,east london,-33.0153,27.9116,293.36,82,99,1.03,ZA,1704074322
303,at taj,24.2049,23.2857,284.53,59,0,2.5,LY,1704074323
304,kavalerovo,44.2661,135.0572,261.23,45,100,1.84,RU,1704074324
305,puerto carreno,6.189,-67.4859,302.63,57,99,3.05,CO,1704074325
306,tsiombe,-25.3,45.4833,296.47,95,100,2.63,MG,1704074325
307,qoryooley,1.7878,44.53,295.76,87,12,3.34,SO,1704074326
308,hoemul-li,41.4339,129.67,272.27,72,93,2.18,KP,1704074327
309,east tamworth,-31.0894,150.9436,302.92,39,75,3.6,AU,1704074327
310,kone,-21.0595,164.8658,304.65,57,60,1.44,NC,1704074328
311,rasht,37.2808,49.5832,283.81,77,100,0.95,IR,1704074329
312,aral,40.5156,81.2636,270.27,54,6,1.94,CN,1704074330
313,bowen,-20.0167,148.2333,302.36,69,17,5.17,AU,1704074186
314,rio gallegos,-51.6226,-69.2181,289.18,48,0,4.63,AR,1704074331
315,staryye ozinki,51.1786,49.6769,274.78,82,100,7.62,RU,1704074332
316,wewak,-3.5534,143.6268,302.92,70,11,2.79,PG,1704074333
317,puerto armuelles,8.2833,-82.8667,299.31,62,100,0.45,PA,1704074333
318,novodvinsk,64.4165,40.8122,244.01,100,72,1.39,RU,1704074334
319,heiligenhafen,54.3667,10.9833,279.12,86,100,7.75,DE,1704074335
320,san rafael,-34.6177,-68.3301,296.18,53,3,1.54,AR,1704074335
321,mormugao,15.4,73.8,295.74,68,20,3.09,IN,1704074336
322,wakkanai,45.4094,141.6739,267.14,72,75,4.02,JP,1704074337
323,tadmur,34.5608,38.2805,282.91,72,0,0.91,SY,1704074337
324,pandan,14.0453,124.1694,300.5,82,48,3.44,PH,1704074338
325,utrik,11.2278,169.8474,300.35,75,40,7.87,MH,1704074339
326,port alfred,-33.5906,26.891,291.03,99,100,3.58,ZA,1704074340
327,mabaruma,8.2,-59.7833,296.61,92,15,1.06,GY,1704074341
328,floro,61.5996,5.0328,279.13,49,100,10.8,NO,1704074341
329,dauphin,51.1494,-100.0502,268.23,68,0,2.57,CA,1704074342
330,touros,-5.1989,-35.4608,299.69,80,94,2.55,BR,1704074270
331,nantucket,41.2835,-70.0995,276.48,65,100,2.57,US,1704074344
332,pokachi,61.7198,75.3683,243.36,99,56,2.54,RU,1704074238
333,bhamo,24.2667,97.2333,290.19,64,0,0.77,MM,1704074345
334,goryachiy klyuch,44.6308,39.13,275.94,89,61,1.59,RU,1704074346
335,yen vinh,18.6667,105.6667,294.53,91,100,1.41,VN,1704074347
336,kiunga,-6.1219,141.2906,300.26,87,98,0.92,PG,1704074348
337,gwadar,25.1216,62.3254,294.55,49,0,1.81,PK,1704074348
338,machico,32.7,-16.7667,292.5,81,40,4.63,PT,1704074349
339,sitka,57.0531,-135.33,277.09,75,100,0.0,US,1704074246
340,korla,41.7597,86.1469,266.95,70,13,0.42,CN,1704074351
341,lorengau,-2.0226,147.2712,302.06,77,63,2.13,PG,1704074352
342,villa luvianos,18.9167,-100.4,287.88,56,7,1.97,MX,1704074352
343,el tigre,8.8875,-64.2454,299.03,68,10,5.37,VE,1704074353
344,ketchikan,55.3422,-131.6461,278.41,81,100,2.06,US,1704074354
345,benjamin hill,30.1667,-111.1,287.81,30,67,2.4,MX,1704074355
346,manokwari,-0.8667,134.0833,301.96,73,60,1.9,ID,1704074356
347,dengzhou,37.8086,120.7508,273.25,60,6,2.56,CN,1704074179
348,fort st. john,56.2499,-120.8529,275.09,60,40,6.69,CA,1704074357
349,hashtpar,37.8008,48.9037,286.01,66,100,0.7,IR,1704074358
350,acapulco de juarez,16.8634,-99.8901,297.44,76,1,3.11,MX,1704074359
351,aitape,-3.1374,142.3475,302.92,71,37,3.2,PG,1704074359
352,fray luis beltran,-39.3167,-65.7667,295.5,57,100,6.75,AR,1704074361
353,ubaira,-13.2681,-39.6628,294.96,93,98,1.08,BR,1704074362
354,chonchi,-42.6128,-73.8092,286.55,90,100,1.01,CL,1704074362
355,ghanzi,-21.5667,21.7833,296.93,51,33,2.83,BW,1704074364
356,kadhan,24.481,68.9859,288.36,27,0,4.28,PK,1704074365
357,qaisumah,28.3112,46.1273,286.13,100,40,2.06,SA,1704074365
358,ribas do rio pardo,-20.4431,-53.7592,295.93,93,100,1.69,BR,1704074366
359,san patricio,28.017,-97.5169,293.62,84,0,4.9,US,1704074367
360,lethem,3.3803,-59.7968,300.68,65,12,5.2,GY,1704074368
361,kingston,17.997,-76.7936,299.68,78,20,2.06,JM,1704074292
362,taoudenni,22.6783,-3.9836,290.56,19,0,4.25,ML,1704074369
363,beira,-19.8436,34.8389,297.81,92,40,3.21,MZ,1704074370
364,yekaterinoslavka,50.3734,129.1139,254.3,86,100,5.46,RU,1704074371
365,gebeit,21.0667,36.3167,287.55,77,0,1.51,SD,1704074372
366,richards bay,-28.783,32.0377,295.85,93,70,0.69,ZA,1704074372
367,riyadh,24.6877,46.7219,288.23,61,88,3.85,SA,1704074373
368,sabha,27.0377,14.4283,283.96,57,0,0.61,LY,1704074374
369,iquique,-20.2208,-70.1431,294.17,80,55,1.51,CL,1704074375
370,abaza,52.655,90.0928,267.85,86,100,4.21,RU,1704074376
371,nizhniy odes,63.6445,54.856,243.59,100,99,2.67,RU,1704074376
372,nuku'alofa,-21.1333,-175.2,298.81,76,38,8.88,TO,1704074377
373,tarawa,1.419,172.984,305.2,74,75,2.57,KI,1704074378
374,paita,-5.0892,-81.1144,296.04,81,95,6.13,PE,1704074379
375,ixtapa,20.7,-105.2,292.5,74,100,1.04,MX,1704074379
376,kendari,-3.945,122.4989,303.01,71,54,1.89,ID,1704074172
377,kamloops,50.6665,-120.3192,279.02,90,100,3.09,CA,1704074377
378,crane,31.3974,-102.3501,285.46,22,2,1.2,US,1704074381
379,flying fish cove,-10.4217,105.6791,301.97,78,100,4.12,CX,1704074382
380,sandnessjoen,66.0217,12.6316,264.44,78,87,10.78,NO,1704074341
381,vila franca do campo,37.7167,-25.4333,291.42,99,61,4.67,PT,1704074384
382,basco,20.4487,121.9702,296.48,81,100,15.46,PH,1704074384
383,puerto deseado,-47.7503,-65.8938,285.72,69,14,5.73,AR,1704074385
384,inari,68.906,27.0288,262.26,100,94,1.7,FI,1704074386
385,lijiang,26.8688,100.2207,278.59,48,0,1.39,CN,1704074386
386,san borja,-14.8167,-66.85,295.57,99,100,1.49,BO,1704074387
387,kerema,-7.9631,145.7785,302.86,73,100,3.43,PG,1704074388
388,tomatlan,19.9333,-105.25,293.79,80,63,0.85,MX,1704074388
389,youghal,51.95,-7.8506,278.71,76,94,6.62,IE,1704074389
390,praszka,51.0537,18.4532,277.58,91,100,3.1,PL,1704074390
391,bissora,12.2231,-15.4475,291.91,48,76,0.78,GW,1704074391
392,bata,1.8639,9.7658,299.62,85,100,3.08,GQ,1704074391
393,mahajanga,-15.7167,46.3167,300.16,89,40,2.06,MG,1704074392
394,pisco,-13.7,-76.2167,295.18,83,0,4.63,PE,1704074393
395,kill devil hills,36.0307,-75.676,280.36,80,0,3.09,US,1704074137
396,bojnurd,37.4747,57.329,271.12,80,0,1.03,IR,1704074394
397,hasaki,35.7333,140.8333,286.09,46,0,11.44,JP,1704074395
398,mazatlan,23.2167,-106.4167,296.99,75,100,0.89,MX,1704074163
399,columbia,34.0007,-81.0348,282.97,65,0,2.06,US,1704074338
400,vorgashor,67.5833,63.95,240.99,99,27,2.34,RU,1704074397
401,altamont,42.2068,-121.7372,276.7,88,100,0.89,US,1704074398
402,lagdo,9.05,13.7333,295.06,26,5,1.13,CM,1704074398
403,wingham,43.8879,-81.3114,273.42,93,100,4.33,CA,1704074399
404,mil'kovo,55.6078,37.7956,263.39,69,100,6.3,RU,1704074400
405,farim,12.4839,-15.2217,292.84,33,95,0.31,GW,1704074401
406,thames,-37.1333,175.5333,294.82,42,9,4.58,NZ,1704074404
407,tiangua,-3.7322,-40.9917,293.69,94,100,0.94,BR,1704074406
408,surazh,53.0175,32.3918,269.2,63,15,2.01,RU,1704074408
409,klyuchi,52.2667,79.1667,268.64,94,100,5.2,RU,1704074410
410,sao joao da barra,-21.6403,-41.0511,296.19,84,97,4.76,BR,1704074411
411,linfen,36.0889,111.5189,274.57,61,24,0.84,CN,1704074411
412,luwingu,-10.2621,29.9271,290.29,96,100,1.14,ZM,1704074413
413,hard bargain,26.3167,-77.5667,291.75,61,0,3.5,BS,1704074415
414,bejaia,36.7559,5.0843,287.54,51,100,1.37,DZ,1704074416
415,birao,10.2849,22.7882,289.47,22,4,2.73,CF,1704074417
416,eraan,9.0629,117.7016,301.08,78,61,3.0,PH,1704074418
417,merizo village,13.2658,144.6691,303.14,89,100,7.17,GU,1704074419
418,auki,-8.7676,160.7034,301.78,80,96,1.38,SB,1704074420
419,ocotal,13.6321,-86.4752,293.4,89,98,2.15,NI,1704074421
420,ormara,25.2088,64.6357,294.48,76,0,1.73,PK,1704074422
421,anna regina,7.2644,-58.5077,297.11,89,58,0.59,GY,1704074424
422,decazeville,44.5605,2.2509,280.53,95,100,1.22,FR,1704074427
423,tobol'sk,58.2,68.2667,256.82,96,99,4.92,RU,1704074428
424,kaiama,9.6225,3.9481,296.34,26,3,2.11,NG,1704074430
425,cruzeiro do sul,-29.5128,-51.9853,292.31,78,5,1.18,BR,1704074432
426,biograd na moru,43.9433,15.4519,287.46,84,100,10.98,HR,1704074434
427,jiquipilas,16.6667,-93.65,289.8,97,12,1.77,MX,1704074436
428,bereznik,62.8551,42.7072,242.18,99,22,1.69,RU,1704074438
429,ishigaki,24.3448,124.1572,292.22,63,75,6.17,JP,1704074439
430,usinsk,65.9939,57.5281,245.46,95,24,4.65,RU,1704074440
431,tandalti,13.0167,31.8667,290.81,34,0,4.81,SD,1704074441
432,santa cruz,-17.8,-63.1667,297.85,88,20,2.57,BO,1704074423
433,kerben,40.2951,72.1863,266.43,59,70,0.9,KG,1704074442
434,dingcheng,32.1272,115.0394,278.4,65,0,4.46,CN,1704074443
435,san luis,-33.295,-66.3356,291.9,83,2,5.24,AR,1704074321
436,baoding,38.8511,115.4903,271.38,77,99,2.43,CN,1704074289
437,gubakha,58.8386,57.5532,259.35,91,100,6.44,RU,1704074301
438,talara,-4.5772,-81.2719,297.57,78,75,5.14,PE,1704074446
439,tamale,9.4008,-0.8393,297.15,17,5,2.64,GH,1704074447
440,maksatikha,57.797,35.8825,254.31,99,96,2.19,RU,1704074448
441,mutoko,-17.397,32.2268,291.79,92,100,0.97,ZW,1704074449
442,tamanrasset,22.785,5.5228,281.1,27,0,2.06,DZ,1704074449
443,manay,7.215,126.5397,302.91,72,48,4.01,PH,1704074450
444,zyryanovsk,49.7386,84.2719,266.81,97,100,0.93,KZ,1704074451
445,sastre,-31.7676,-61.8289,292.04,64,67,4.51,AR,1704074453
446,dundaga,57.5167,22.35,270.28,69,100,3.55,LV,1704074454
447,margate,51.3813,1.3862,281.98,75,99,5.81,GB,1704074222
448,dalianwan,39.0286,121.695,269.17,54,0,2.0,CN,1704074455
449,mitu,1.1983,-70.1733,296.68,94,100,1.0,CO,1704074217
450,mtwara,-10.2667,40.1833,300.49,88,92,4.42,TZ,1704074457
451,cockburn town,21.4612,-71.1419,298.13,57,40,3.09,TC,1704074457
452,zaragoza,41.6561,-0.8773,283.16,62,0,2.24,ES,1704074458
453,yanta,36.2411,115.6672,274.08,69,87,3.05,CN,1704074459
454,el rama,12.1596,-84.2195,295.71,87,83,3.47,NI,1704074267
455,mwanza,-2.5167,32.9,291.94,93,100,1.82,TZ,1704074460
456,mahina,-17.5065,-149.489,304.02,70,40,3.09,PF,1704074461
457,corner brook,48.9667,-57.9484,272.24,96,94,3.32,CA,1704074380
458,staroyur'yevo,53.3161,40.7081,263.65,88,73,7.0,RU,1704074463
459,agat village,13.3886,144.6585,303.35,82,40,6.17,GU,1704074464
460,kolondieba,11.0882,-6.8926,294.2,17,1,1.27,ML,1704074465
461,chabahar,25.2919,60.643,294.94,71,5,0.69,IR,1704074466
462,cuenca,-2.8833,-78.9833,288.22,82,75,1.03,EC,1704074366
463,petropavlovsk-kamchatsky,53.0452,158.6483,258.48,70,0,5.36,RU,1704074468
464,raja,8.4596,25.678,292.58,24,82,2.14,SS,1704074469
465,tari,12.4086,4.4914,293.06,21,0,4.28,NG,1704074470
466,deqen,29.9618,90.7188,269.29,45,31,0.8,CN,1704074471
467,mount isa,-20.7333,139.5,312.02,8,46,2.57,AU,1704074474
468,kabo,7.6994,18.629,294.24,29,0,1.6,CF,1704074477
469,beni,0.5,29.4667,290.56,83,100,1.37,CD,1704074479
470,weno,7.4515,151.8468,301.47,81,36,6.05,FM,1704074480
471,constitucion,-35.3333,-72.4167,286.42,87,83,0.85,CL,1704074416
472,usogorsk,63.4106,48.6872,244.08,100,76,2.06,RU,1704074483
473,bulawayo,-20.15,28.5833,290.99,87,36,2.18,ZW,1704074485
474,guichon,-32.35,-57.2,291.91,65,100,3.61,UY,1704074486
475,sechura,-5.5569,-80.8222,296.97,72,96,7.15,PE,1704074487
476,cestos city,5.46,-9.5828,299.98,83,80,2.52,LR,1704074488
477,yanam,16.7333,82.2167,296.22,71,92,2.5,IN,1704074489
478,palmares do sul,-30.2578,-50.5097,291.4,74,62,3.85,BR,1704074490
479,galle,6.0367,80.217,298.6,90,91,0.46,LK,1704074262
480,magadan,59.5667,150.8,249.06,79,26,3.04,RU,1704074472
481,brookings,44.3114,-96.7984,266.51,95,15,1.71,US,1704074493
482,george,-33.963,22.4617,289.9,100,75,3.6,ZA,1704074494
483,mossel bay,-34.1831,22.146,291.11,87,92,6.51,ZA,1704074495
484,recani,31.2846,-4.2688,282.74,27,13,1.02,MA,1704074495
485,oyama,36.3,139.8,284.59,30,3,1.5,JP,1704074496
486,al qusayr,34.5091,36.5798,282.56,70,0,0.06,SY,1704074497
487,sao joao do piaui,-8.3581,-42.2467,297.46,80,81,1.13,BR,1704074498
488,mariental,-24.6333,17.9667,294.5,28,0,3.28,NA,1704074498
489,machiques,10.0644,-72.545,298.44,82,40,4.12,VE,1704074499
490,north bay,46.3168,-79.4663,268.68,76,100,2.57,CA,1704074460
491,roma,43.2128,-75.4557,273.2,84,100,2.57,US,1704074501
492,petawawa,45.9001,-77.3328,267.36,77,100,1.51,CA,1704074502
493,timbuktu,16.7735,-3.0074,292.32,14,0,4.04,ML,1704074503
494,kibre mengist,5.8833,38.9833,287.25,90,21,1.09,ET,1704074503
495,nea kallikrateia,40.3167,23.0667,285.06,93,100,0.78,GR,1704074504
496,chita,52.0333,113.55,248.09,77,20,0.0,RU,1704074505
497,tabou,4.423,-7.3528,299.53,84,44,2.25,CI,1704074506
498,turaif,31.6725,38.6637,281.29,93,40,2.06,SA,1704074506
499,chiclana de la frontera,36.4192,-6.1494,284.42,82,100,3.13,ES,1704074507
500,gonzaga,44.9498,10.8209,281.47,96,94,3.98,IT,1704074508
501,linxi,39.7,118.4333,268.93,79,24,2.8,CN,1704074509
502,mournies,35.4764,24.0092,288.61,77,75,0.0,GR,1704074509
503,bethanie,-26.4833,17.15,294.8,49,0,1.3,NA,1704074510
504,feodosiya,45.0333,35.3833,280.23,73,18,1.96,UA,1704074511
505,vinton,37.281,-79.897,280.75,73,0,1.54,US,1704074512
506,dzuunmod,48.2199,97.3744,256.55,72,68,2.91,MN,1704074513
507,gardabani,41.4605,45.0928,279.2,66,22,2.83,GE,1704074514
508,vernon,50.2581,-119.2691,278.35,95,84,0.51,CA,1704074266
509,colac,-38.3333,143.5833,294.91,46,95,1.14,AU,1704074515
510,preobrazheniye,42.9019,133.9064,267.89,35,12,1.93,RU,1704074240
511,akureyri,65.6835,-18.0878,273.11,86,100,6.69,IS,1704074518
512,peniche,39.3558,-9.3811,283.4,68,57,0.88,PT,1704074476
513,ancud,-41.8697,-73.8203,285.67,92,100,1.07,CL,1704074520
514,malango,-2.9627,119.9001,300.3,72,77,1.32,ID,1704074521
515,minot air force base,48.4209,-101.3391,266.25,85,0,3.09,US,1704074522
516,ar ruways,24.1103,52.7306,294.47,77,0,4.4,AE,1704074523
517,phalaborwa,-23.943,31.1411,295.75,71,0,0.53,ZA,1704074462
518,upington,-28.4478,21.2561,296.36,53,0,5.14,ZA,1704074527
519,tadine,-21.55,167.8833,301.49,66,10,5.02,NC,1704074528
520,gizo,-8.103,156.8419,302.62,73,21,0.59,SB,1704074529
521,pushchino,54.8339,37.6264,264.19,83,100,5.64,RU,1704074530
522,yeniseysk,58.4497,92.1703,261.74,93,100,3.06,RU,1704074531
523,karratha,-20.7377,116.8463,312.61,18,6,2.72,AU,1704074532
524,graaff-reinet,-32.2522,24.5308,288.66,96,100,2.56,ZA,1704074533
525,mucurici,-18.0933,-40.5158,295.95,96,100,2.83,BR,1704074533
526,bodo,67.28,14.405,269.17,54,0,14.4,NO,1704074534
527,lib,8.3122,167.3766,301.26,79,38,7.58,MH,1704074535
528,ouadda,8.0777,22.4007,290.37,33,10,1.85,CF,1704074536
529,hudiksvall,61.729,17.1036,266.16,92,100,2.99,SE,1704074537
530,al bayda',32.7627,21.7551,284.13,77,100,3.04,LY,1704074538
531,ghat,24.9647,10.1728,286.43,23,0,1.8,LY,1704074539
532,tocopilla,-22.092,-70.1979,294.52,71,20,3.05,CL,1704074537
533,ramanuj ganj,23.8,83.7,285.22,61,0,1.16,IN,1704074542
534,sao tome,0.3365,6.7273,300.23,79,100,2.47,ST,1704074543
535,gulf shores,30.246,-87.7008,287.59,82,0,0.0,US,1704074544
536,jakar,27.5492,90.7525,276.91,68,26,0.71,BT,1704074545
537,al mahwit,15.4701,43.5448,284.93,87,29,0.78,YE,1704074546
538,dalandzadgad,43.5708,104.425,263.64,63,55,0.99,MN,1704074547
539,joinville,-26.3044,-48.8456,295.1,94,75,1.03,BR,1704074374
540,liwale,-9.7667,37.9333,294.87,97,100,1.37,TZ,1704074549
541,comodoro rivadavia,-45.8667,-67.5,293.07,45,0,5.66,AR,1704074551
542,tabora,-5.0167,32.8,290.2,96,100,0.13,TZ,1704074552
543,inhambane,-23.865,35.3833,298.48,78,100,4.18,MZ,1704074553
544,busselton,-33.65,115.3333,296.47,49,90,5.0,AU,1704074554
545,funafuti,-8.5243,179.1942,306.15,62,75,2.57,TV,1704074554
546,casper,42.8666,-106.3131,275.48,66,0,6.69,US,1704074555
547,lapa,-25.7697,-49.7158,289.66,86,87,3.68,BR,1704074556
548,al kharijah,25.4514,30.5464,285.96,69,0,3.16,EG,1704074557
549,takoradi,4.8845,-1.7554,300.0,81,5,2.73,GH,1704074558
550,melfort,52.8667,-104.6177,270.22,74,77,4.12,CA,1704074559
551,gazli,40.1333,63.45,277.76,37,42,4.37,UZ,1704074560
552,san andres tuxtla,18.45,-95.2167,290.2,91,15,1.2,MX,1704074460
553,starotitarovskaya,45.2136,37.1439,272.41,76,0,0.43,RU,1704074561
554,awjilah,29.1081,21.2869,286.2,67,0,2.8,LY,1704074562
555,barra do bugres,-15.0725,-57.1811,297.81,81,100,1.82,BR,1704074560
556,urambo,-5.0667,32.05,290.54,96,100,0.3,TZ,1704074563
557,woodward,36.4337,-99.3904,273.66,82,0,4.12,US,1704074493
558,yerofey pavlovich,53.9667,121.9667,254.31,93,100,0.36,RU,1704074565
559,sain alto,23.5833,-103.25,285.59,25,100,1.13,MX,1704074565
560,kruisfontein,-34.0033,24.7314,290.86,95,100,4.9,ZA,1704074566
561,salinopolis,-0.6136,-47.3561,298.98,86,100,2.62,BR,1704074568
562,kyaukse,21.6,96.1333,285.15,94,20,0.0,MM,1704074570
563,ascension,30.2169,-90.9001,286.51,74,0,0.0,US,1704074571
564,tobruk,32.0836,23.9764,288.5,63,96,3.65,LY,1704074571
565,yinchuan,38.4681,106.2731,271.01,48,100,2.44,CN,1704074364
